[{"location": "Raleigh, NC", "location_plus": "Raleigh,+NC", "stopover": false, "activities": [{"address": "500 Fayetteville St, Raleigh, NC 27601", "title": "Yelp Falls for Rye Bar"}, {"address": "614 W South St Raleigh, NC 27603", "title": "Boulted Bread"}, {"address": "602 Glenwood Ave Raleigh, NC 27603", "title": "The Wine Feed"}, {"address": "119 E Hargett St Raleigh, NC 27601", "title": "Yelp Heats Up at Alter Ego Salon"}, {"address": "323 W Davie St Raleigh, NC 27601", "title": "Trolley Pub Raleigh"}, {"address": "520 Ashe Ave Raleigh, NC 27617", "title": "Pullen Park"}, {"address": "401 Hillsborough St Ste A Raleigh, NC 27603", "title": "State of Beer"}, {"address": "Cameron Village 419-B Daniels St Raleigh, NC 27605", "title": "Tin Roof Teas"}, {"address": "432 Woodburn Rd Raleigh, NC 27605", "title": "Tazza Kitchen Cameron Village"}, {"address": "407 Glenwood Ave Raleigh, NC 27603", "title": "C Grace"}, {"address": "111 Seaboard Ave Ste 116 Raleigh, NC 27604", "title": "BREW Coffee Bar"}, {"address": "130 E Davie St Ste 130 Raleigh, NC 27601", "title": "Sosta Caf\u00e9"}, {"address": "330 Hillsborough St Raleigh, NC 27603", "title": "Second Empire Restaurant And Tavern"}, {"address": "938 N Blount St Raleigh, NC 27604", "title": "Stanbury"}, {"address": "222 S Blount St Raleigh, NC 27601", "title": "Bida Manda"}, {"address": "235 South Salisbury St Raleigh, NC 27601", "title": "Lucettegrace"}, {"address": "428 S Dawson St Raleigh, NC 27601", "title": "The Fiction Kitchen"}, {"address": "213 Fayetteville St Ste 010 Raleigh, NC 27601", "title": "Foundation"}, {"address": "10 W Franklin St Ste 120 Raleigh, NC 27604", "title": "J Betski's"}, {"address": "427 Woodburn Rd Raleigh, NC 27605", "title": "Ajisai Japanese Fusion"}]}, {"location": "Durham, NC", "location_plus": "Durham,+NC", "stopover": false, "activities": [{"address": "121 N Gregson St Durham, NC 27701", "title": "Rose's Meat Market and Sweet Shop"}, {"address": "119 W Main St Durham, NC 27701", "title": "Rock's Bar and Hair Shop"}, {"address": "318 Blackwell St Ste 150 Durham, NC 27701", "title": "American Tobacco Campus"}, {"address": "1108 Broad St Durham, NC 27705", "title": "The Green Room"}, {"address": "500 W Corporation St Durham, NC 27701", "title": "The Doughman"}, {"address": "117B E Main St Durham, NC 27701", "title": "Bar Lusconi"}, {"address": "3325 N Roxboro St Durham, NC 27704", "title": "La Superior Carniceria"}, {"address": "105 S Mangum St Durham, NC 27701", "title": "Bar Virgile"}, {"address": "905 W Main St Ste 21 A Durham, NC 27701", "title": "The Little Dipper"}, {"address": "1807 W Markham Ave Durham, NC 27705", "title": "Heavenly Buffaloes"}, {"address": "605 W Main St Durham, NC 27701", "title": "West End Billiards"}, {"address": "420 W Geer St Durham, NC 27701", "title": "Cocoa Cinnamon"}, {"address": "Durham, NC 27701", "title": "KoKyu BBQ"}, {"address": "2514 University Dr Durham, NC 27707", "title": "Nana's"}, {"address": "726 Rigsbee Ave Durham, NC 27701", "title": "Fullsteam Brewery"}, {"address": "320 E Chapel Hill St Durham, NC 27701", "title": "Alley Twenty Six"}, {"address": "703 Rigsbee Ave Durham, NC 27701", "title": "Surf Club"}, {"address": "608 N Mangum St Durham, NC 27701", "title": "Saltbox Seafood Joint"}, {"address": "105 E Chapel Hill St Durham, NC 27701", "title": "Pizzeria Toro"}, {"address": "737 9th St Ste 220 Durham, NC 27705", "title": "Burger Bach"}]}, {"location": "Richmond, VA", "location_plus": "Richmond,+VA", "stopover": false, "activities": [{"address": "1445B S 50th St Richmond, CA 94804", "title": "Addiction Motors"}, {"address": "350A Carlson Blvd Richmond, CA 94804", "title": "Tradeway Carpet Outlet"}, {"address": "999 W Cutting Blvd Ste 3 Richmond, CA 94804", "title": "Auto Point Motors"}, {"address": "12817 San Pablo Ave Richmond, CA 94805", "title": "Richmond Express Cleaners"}, {"address": "5327 Jacuzzi St Richmond, CA 94804", "title": "Gran Milan - Bakery & Cafe'"}, {"address": "2701 Isabel St Richmond, CA 94808", "title": "Point Isabel Dog Park"}, {"address": "1 Isabel St Richmond, CA 94804", "title": "Mudpuppy's Tub & Scrub"}, {"address": "3288 Pierce St Ste 117 Richmond, CA 94804", "title": "Ran Kanom Thai"}, {"address": "5551 Giant Hwy Richmond, CA 94806", "title": "Point Pinole Regional Shoreline"}, {"address": "Rosie the Riveter WWII National Historical Park 1111 Melville Sq Richmond, CA 94804", "title": "Rosie the Riveter Outdoor Memorial"}, {"address": "865 Marina Bay Pwky Richmond, CA 94804", "title": "Quiche & Carry"}, {"address": "1100 23rd St Richmond, CA 94804", "title": "Philadelphia Hoagie Station"}, {"address": "1402 Marina Way S Ste B Richmond, CA 94804", "title": "Bubbaloo Cafe"}, {"address": "900 Dornan Dr Richmond, CA 94801", "title": "Miller Knox Regional Park"}, {"address": "1305 Carlson Blvd Richmond, CA 94804", "title": "Lilly's New Orleans Cafe"}, {"address": "1414 Harbour Way S Richmond, CA 94804", "title": "Rosie the Riveter WWII Home Front National Historical Park"}, {"address": "Marina Bay & Regatta Blvd Richmond, CA 94804", "title": "Marina Bay Park"}, {"address": "5755 Mcbryde Ave Richmond, CA 94808", "title": "Wildcat Canyon Regional Park"}, {"address": "12472 San Pablo Ave Richmond, CA 94805", "title": "Catahoula Coffee Company"}, {"address": "550 23rd St Richmond, CA 94804", "title": "Tacos Los Primos"}]}, {"location": "Washington, DC", "location_plus": "Washington,+DC", "stopover": false, "activities": [{"address": "2121 Virginia Ave NW Foggy Bottom Washington, DC 20037", "title": "Sammy's Coffee Kiosk"}, {"address": "Lincoln Memorial Cir NW Washington, DC 20002", "title": "Lincoln Memorial"}, {"address": "1847 7th St NW Shaw Washington, DC 20001", "title": "Calabash Tea & Tonic"}, {"address": "National Mall Henry Bacon Dr and Constitution Ave NW Washington, DC 20050", "title": "Vietnam Veterans Memorial"}, {"address": "Lincoln Memorial Circle 900 Ohio Dr SW Washington, DC 20037", "title": "Korean War Veterans Memorial"}, {"address": "101 Independence Ave SE Capitol Hill Washington, DC 20540", "title": "Library of Congress"}, {"address": "3101 Wisconsin Ave NW Washington, DC 20016", "title": "Washington National Cathedral"}, {"address": "900 Ohio Dr SW Washington, DC 20024", "title": "Jefferson Memorial"}, {"address": "1309 5th St NE Washington, DC 20002", "title": "Neopol Savory Smokery"}, {"address": "1926 17th St NW Washington, DC 20009", "title": "Three Fifty Bakery and Coffee Bar"}, {"address": "8th St & F St NW Washington, DC 20560", "title": "Smithsonian American Art Museum"}, {"address": "717 8th St SE Capitol Hill Washington, DC 20003", "title": "Rose's Luxury"}, {"address": "The National Mall 17th and Independence Ave SW Washington, DC 20050", "title": "National World War II Memorial"}, {"address": "900 Ohio Dr SW Washington, DC 20565", "title": "National Mall"}, {"address": "855 E St NW Penn Quarter Washington, DC 20004", "title": "Barmini By Jos\u00e9 Andr\u00e9s"}, {"address": "1964 Independence Ave SW Washington, DC 20024", "title": "Martin Luther King, Jr. National Memorial"}, {"address": "1850 W Basin Dr SW Washington, DC 20024", "title": "FDR Memorial"}, {"address": "1780 Florida Ave NW Washington, DC 20009", "title": "Keren Restaurant"}, {"address": "1118 H St NE H Street Corridor/Atlas District/Near Northeast Washington, DC 20002", "title": "&pizza"}, {"address": "1005 E St NW Washington, DC 20004", "title": "&pizza"}]}, {"location": "Baltimore, MD", "location_plus": "Baltimore,+MD", "stopover": false, "activities": [{"address": "1401 Riverside Ave Riverside Baltimore, MD 21230", "title": "Pure Raw Juice"}, {"address": "101 N Patterson Park Ave Patterson Place Baltimore, MD 21231", "title": "Grace's Acre"}, {"address": "313 S High St Little Italy Baltimore, MD 21202", "title": "Joe Benny's"}, {"address": "300 Key Hwy Inner Harbor Baltimore, MD 21201", "title": "Federal Hill Park"}, {"address": "Downtown Baltimore, MD", "title": "Blacksauce Kitchen"}, {"address": "92 Market Pl Inner Harbor Baltimore, MD 21202", "title": "Yomna's Mediterranean Wraps & Rice"}, {"address": "1841 E Lombard St Upper Fells Point Baltimore, MD 21231", "title": "Water for Chocolate"}, {"address": "1022 Light St Federal Hill Baltimore, MD 21230", "title": "Brendali"}, {"address": "324 W Baltimore St Downtown Baltimore, MD 21201", "title": "Maiwand Grill"}, {"address": "1712 Aliceanna St Fells Point Baltimore, MD 21231", "title": "Birds of a Feather"}, {"address": "102 W Clay St Downtown Baltimore, MD 21201", "title": "Puerto 511"}, {"address": "801 E Fort Ave Riverside Baltimore, MD 21230", "title": "Bar Liquorice"}, {"address": "406 N Paca St Seton Hill Baltimore, MD 21201", "title": "Trinacria Foods"}, {"address": "3700 Gough St Highlandtown Baltimore, MD 21224", "title": "Di Pasquale's Italian Marketplace"}, {"address": "400 W 23rd St Remington Baltimore, MD 21211", "title": "WC Harlan"}, {"address": "2400 E Fort Ave Locust Point Industrial Area Baltimore, MD 21230", "title": "Fort McHenry National Monument"}, {"address": "600 Oldham St Greektown Baltimore, MD 21224", "title": "Samos Restaurant"}, {"address": "644 E Fort Ave Riverside Baltimore, MD 21230", "title": "Koba Caf\u00e9"}, {"address": "2404 N Charles St Old Goucher Baltimore, MD 21218", "title": "Brown Rice Korean Grill"}, {"address": "1000 Lancaster St Fl 6 Inner Harbor Baltimore, MD 21202", "title": "Charleston Restaurant"}]}, {"location": "New York, NY", "location_plus": "New York,+NY", "stopover": false, "activities": [{"address": "Pier 16 South Street Seaport South Street Seaport New York, NY", "title": "Yelp's 11th Burstday Aboard THE ZEPHYR"}, {"address": "622 6th St East Village New York, NY 10009", "title": "6BC Botanical Garden"}, {"address": "189 Ave A East Village New York, NY 10009", "title": "Harry & Ida's Meat and Supply Co"}, {"address": "8 Extra Pl East Village New York, NY 10003", "title": "Momofuku Ko"}, {"address": "181 Essex St Lower East Side New York, NY 10002", "title": "Benson's NYC"}, {"address": "DUMBO New York, NY 11201", "title": "Bolivian Llama Party"}, {"address": "146 W Houston St Greenwich Village New York, NY 10012", "title": "Song E Napule"}, {"address": "Columbia Heights Brooklyn Heights Brooklyn, NY 11201", "title": "Brooklyn Heights Promenade"}, {"address": "Pier 1 Brooklyn, NY 11201", "title": "Brooklyn Bridge Park"}, {"address": "120 Liberty St Financial District New York, NY 10006", "title": "9/11 Tribute Center"}, {"address": "193 Bleecker St Greenwich Village New York, NY 10012", "title": "Manousheh"}, {"address": "180 Greenwich St Financial District New York, NY 10007", "title": "9/11 Memorial"}, {"address": "182 S 2nd St Williamsburg - South Side Brooklyn, NY 11211", "title": "BeeHive Oven Biscuit Cafe"}, {"address": "130 St Marks Pl East Village New York, NY 10009", "title": "Kura"}, {"address": "97 Nassau St Financial District New York, NY 10038", "title": "Pisillo Italian Panini"}, {"address": "260 Bleecker St West Village New York, NY 10014", "title": "Faicco's Italian Specialties"}, {"address": "109 Christopher St West Village New York, NY 10014", "title": "McNulty's Tea & Coffee Co"}, {"address": "Brooklyn Bridge Park 45 Dock St Brooklyn, NY 11201", "title": "Jane's Carousel"}, {"address": "201 Bleecker St Greenwich Village New York, NY 10012", "title": "Porto Rico Importing Company"}, {"address": "229 E 14th St Gramercy New York, NY 10003", "title": "Beyond Sushi"}]}]